[{"zip":"75034","city":"Frisco","state":"TX","lat":33.1499,"lng":-96.8241,"pop":116155},{"zip":"75070","city":"Mc kinney","state":"TX","lat":33.1976,"lng":-96.6153,"pop":109085},{"zip":"75052","city":"Grand prairie","state":"TX","lat":32.6605,"lng":-97.0311,"pop":94060},{"zip":"75217","city":"Dallas","state":"TX","lat":32.7244,"lng":-96.6755,"pop":86811},{"zip":"75035","city":"Zcta 75035","state":"TX","lat":33.1377,"lng":-96.7524,"pop":80269},{"zip":"75211","city":"Cockrell hill","state":"TX","lat":32.7319,"lng":-96.9057,"pop":77920},{"zip":"76063","city":"Mansfield","state":"TX","lat":32.5773,"lng":-97.1416,"pop":76609},{"zip":"75228","city":"Dallas","state":"TX","lat":32.825,"lng":-96.6784,"pop":75303},{"zip":"75002","city":"Allen","state":"TX","lat":33.0934,"lng":-96.6454,"pop":73916},{"zip":"76028","city":"Burleson","state":"TX","lat":32.5316,"lng":-97.309,"pop":72493},{"zip":"75068","city":"Lakewood village","state":"TX","lat":33.1768,"lng":-96.9583,"pop":69656},{"zip":"76179","city":"Saginaw","state":"TX","lat":32.9074,"lng":-97.4257,"pop":69066},{"zip":"75243","city":"Dallas","state":"TX","lat":32.9103,"lng":-96.7285,"pop":68253},{"zip":"75067","city":"Highland village","state":"TX","lat":33.0198,"lng":-96.9925,"pop":67197},{"zip":"75043","city":"Garland","state":"TX","lat":32.8565,"lng":-96.5999,"pop":62721},{"zip":"75150","city":"Mesquite","state":"TX","lat":32.8154,"lng":-96.6307,"pop":61863},{"zip":"75040","city":"Garland","state":"TX","lat":32.9227,"lng":-96.6248,"pop":61508},{"zip":"75227","city":"Dallas","state":"TX","lat":32.7672,"lng":-96.6836,"pop":60632},{"zip":"76137","city":"Fort worth","state":"TX","lat":32.8664,"lng":-97.2891,"pop":59983},{"zip":"75056","city":"The colony","state":"TX","lat":33.094,"lng":-96.8836,"pop":59674},{"zip":"76010","city":"Arlington","state":"TX","lat":32.7204,"lng":-97.0826,"pop":59526},{"zip":"75098","city":"Wylie","state":"TX","lat":33.0041,"lng":-96.5394,"pop":58717},{"zip":"75149","city":"Mesquite","state":"TX","lat":32.7678,"lng":-96.6082,"pop":57758},{"zip":"75007","city":"Carrollton","state":"TX","lat":33.0033,"lng":-96.882,"pop":57513},{"zip":"75287","city":"Dallas","state":"TX","lat":33.0005,"lng":-96.8314,"pop":55060},{"zip":"75025","city":"Plano","state":"TX","lat":33.0784,"lng":-96.7291,"pop":54653},{"zip":"75216","city":"Dallas","state":"TX","lat":32.7086,"lng":-96.7955,"pop":54253},{"zip":"76051","city":"Grapevine","state":"TX","lat":32.9328,"lng":-97.0808,"pop":54130},{"zip":"75061","city":"Irving","state":"TX","lat":32.8267,"lng":-96.9633,"pop":53983},{"zip":"75080","city":"Richardson","state":"TX","lat":32.966,"lng":-96.7452,"pop":53708},{"zip":"76133","city":"Fort worth","state":"TX","lat":32.6526,"lng":-97.3758,"pop":53694},{"zip":"75074","city":"Plano","state":"TX","lat":33.0277,"lng":-96.6777,"pop":53459},{"zip":"75115","city":"De soto","state":"TX","lat":32.6041,"lng":-96.8653,"pop":53118},{"zip":"76119","city":"Fort worth","state":"TX","lat":32.6914,"lng":-97.2675,"pop":52279},{"zip":"75006","city":"Carrollton","state":"TX","lat":32.9657,"lng":-96.8825,"pop":52231},{"zip":"75126","city":"Forney","state":"TX","lat":32.7491,"lng":-96.4598,"pop":52078},{"zip":"75023","city":"Plano","state":"TX","lat":33.055,"lng":-96.7365,"pop":50923},{"zip":"76116","city":"Fort worth","state":"TX","lat":32.723,"lng":-97.4483,"pop":50371},{"zip":"75060","city":"Irving","state":"TX","lat":32.8023,"lng":-96.9597,"pop":49307},{"zip":"75062","city":"Irving","state":"TX","lat":32.8479,"lng":-96.974,"pop":49296},{"zip":"75104","city":"Cedar hill","state":"TX","lat":32.5885,"lng":-96.9438,"pop":48821},{"zip":"75028","city":"Flower mound","state":"TX","lat":33.0383,"lng":-97.0745,"pop":48641},{"zip":"75093","city":"Plano","state":"TX","lat":33.0299,"lng":-96.7889,"pop":47908},{"zip":"76131","city":"Fort worth","state":"TX","lat":32.8632,"lng":-97.3377,"pop":47377},{"zip":"76017","city":"Arlington","state":"TX","lat":32.6555,"lng":-97.1599,"pop":46312},{"zip":"75044","city":"Garland","state":"TX","lat":32.9522,"lng":-96.6654,"pop":45284},{"zip":"75165","city":"Waxahachie","state":"TX","lat":32.3808,"lng":-96.8374,"pop":44571},{"zip":"75050","city":"Grand prairie","state":"TX","lat":32.7649,"lng":-97.0112,"pop":43190},{"zip":"75019","city":"Coppell","state":"TX","lat":32.9673,"lng":-96.9805,"pop":43137},{"zip":"75024","city":"Plano","state":"TX","lat":33.0752,"lng":-96.7843,"pop":43041},{"zip":"75013","city":"Zcta 75013","state":"TX","lat":33.1186,"lng":-96.6773,"pop":42956},{"zip":"76108","city":"White settlement","state":"TX","lat":32.7822,"lng":-97.4969,"pop":42902},{"zip":"76112","city":"Fort worth","state":"TX","lat":32.7493,"lng":-97.2181,"pop":42218},{"zip":"75154","city":"Ovilla","state":"TX","lat":32.5185,"lng":-96.8071,"pop":42192},{"zip":"75051","city":"Grand prairie","state":"TX","lat":32.7115,"lng":-97.0069,"pop":41317},{"zip":"76262","city":"Trophy club","state":"TX","lat":33.0211,"lng":-97.2127,"pop":41158},{"zip":"75220","city":"Dallas","state":"TX","lat":32.8681,"lng":-96.8622,"pop":41110},{"zip":"75231","city":"Dallas","state":"TX","lat":32.8756,"lng":-96.7495,"pop":40987},{"zip":"75081","city":"Richardson","state":"TX","lat":32.9462,"lng":-96.7058,"pop":40825},{"zip":"75063","city":"Irving","state":"TX","lat":32.9247,"lng":-96.9598,"pop":39831},{"zip":"75206","city":"Dallas","state":"TX","lat":32.831,"lng":-96.7692,"pop":39653},{"zip":"75234","city":"Farmers branch","state":"TX","lat":32.9245,"lng":-96.8938,"pop":39644},{"zip":"76248","city":"Keller","state":"TX","lat":32.9276,"lng":-97.2489,"pop":39641},{"zip":"76106","city":"Fort worth","state":"TX","lat":32.7968,"lng":-97.356,"pop":38906},{"zip":"76065","city":"Midlothian","state":"TX","lat":32.4757,"lng":-96.9936,"pop":38800},{"zip":"75077","city":"Zcta 75077","state":"TX","lat":33.0775,"lng":-97.0704,"pop":38764},{"zip":"76039","city":"Euless","state":"TX","lat":32.8582,"lng":-97.0832,"pop":37896},{"zip":"75224","city":"Dallas","state":"TX","lat":32.7114,"lng":-96.8387,"pop":37602},{"zip":"75248","city":"Dallas","state":"TX","lat":32.9682,"lng":-96.7942,"pop":37602},{"zip":"75069","city":"Mc kinney","state":"TX","lat":33.1976,"lng":-96.6153,"pop":37582},{"zip":"75042","city":"Garland","state":"TX","lat":32.9185,"lng":-96.6775,"pop":37458},{"zip":"75075","city":"Plano","state":"TX","lat":33.025,"lng":-96.7397,"pop":37310},{"zip":"75089","city":"Zcta 75089","state":"TX","lat":32.9346,"lng":-96.5544,"pop":37310},{"zip":"76001","city":"Zcta 76001","state":"TX","lat":32.6289,"lng":-97.1517,"pop":37231},{"zip":"76180","city":"North richland h","state":"TX","lat":32.84,"lng":-97.225,"pop":37117},{"zip":"76123","city":"Fort worth","state":"TX","lat":32.6254,"lng":-97.3658,"pop":37075},{"zip":"75087","city":"Heath","state":"TX","lat":32.9492,"lng":-96.4418,"pop":36718},{"zip":"76227","city":"Aubrey","state":"TX","lat":33.292,"lng":-96.9879,"pop":36392},{"zip":"76002","city":"Zcta 76002","state":"TX","lat":32.6255,"lng":-97.0784,"pop":36302},{"zip":"76021","city":"Bedford","state":"TX","lat":32.8536,"lng":-97.1358,"pop":35168},{"zip":"76013","city":"Arlington","state":"TX","lat":32.7199,"lng":-97.1442,"pop":34763},{"zip":"75214","city":"Dallas","state":"TX","lat":32.8248,"lng":-96.7498,"pop":34658},{"zip":"75078","city":"Prosper","state":"TX","lat":33.2362,"lng":-96.7954,"pop":34300},{"zip":"75032","city":"Zcta 75032","state":"TX","lat":32.886,"lng":-96.4095,"pop":33956},{"zip":"76110","city":"Fort worth","state":"TX","lat":32.7065,"lng":-97.3375,"pop":33720},{"zip":"76040","city":"Euless","state":"TX","lat":32.8264,"lng":-97.0972,"pop":33419},{"zip":"75238","city":"Dallas","state":"TX","lat":32.877,"lng":-96.708,"pop":33396},{"zip":"76014","city":"Arlington","state":"TX","lat":32.6954,"lng":-97.0876,"pop":33289},{"zip":"75232","city":"Dallas","state":"TX","lat":32.6647,"lng":-96.8384,"pop":32823},{"zip":"75229","city":"Dallas","state":"TX","lat":32.8958,"lng":-96.8588,"pop":32739},{"zip":"76117","city":"Haltom city","state":"TX","lat":32.8087,"lng":-97.2709,"pop":32191},{"zip":"75204","city":"Dallas","state":"TX","lat":32.8038,"lng":-96.7851,"pop":32032},{"zip":"76092","city":"Grapevine","state":"TX","lat":32.9485,"lng":-97.1524,"pop":31837},{"zip":"76016","city":"Arlington","state":"TX","lat":32.6889,"lng":-97.1905,"pop":31705},{"zip":"75041","city":"Garland","state":"TX","lat":32.8794,"lng":-96.6411,"pop":31250},{"zip":"76140","city":"Everman","state":"TX","lat":32.6192,"lng":-97.2735,"pop":30930},{"zip":"75241","city":"Dallas","state":"TX","lat":32.6722,"lng":-96.7774,"pop":30863},{"zip":"75189","city":"Royse city","state":"TX","lat":32.9628,"lng":-96.3648,"pop":30842},{"zip":"75010","city":"Carrollton","state":"TX","lat":33.0304,"lng":-96.8777,"pop":30784},{"zip":"76020","city":"Azle","state":"TX","lat":32.9035,"lng":-97.5412,"pop":30487},{"zip":"76053","city":"Hurst","state":"TX","lat":32.8211,"lng":-97.1756,"pop":30317},{"zip":"75208","city":"Dallas","state":"TX","lat":32.7492,"lng":-96.8389,"pop":30064},{"zip":"76049","city":"Granbury","state":"TX","lat":32.4488,"lng":-97.7285,"pop":30062},{"zip":"75038","city":"Irving","state":"TX","lat":32.8653,"lng":-96.9905,"pop":29886},{"zip":"75110","city":"Corsicana","state":"TX","lat":32.0868,"lng":-96.4762,"pop":29665},{"zip":"76201","city":"Denton","state":"TX","lat":33.2289,"lng":-97.1314,"pop":29447},{"zip":"76107","city":"Fort worth","state":"TX","lat":32.7392,"lng":-97.3852,"pop":29377},{"zip":"76226","city":"Argyle","state":"TX","lat":33.1062,"lng":-97.16,"pop":29240},{"zip":"76087","city":"Weatherford","state":"TX","lat":32.7495,"lng":-97.6894,"pop":29119},{"zip":"75119","city":"Ennis","state":"TX","lat":32.3321,"lng":-96.6224,"pop":28901},{"zip":"76134","city":"Fort worth","state":"TX","lat":32.6469,"lng":-97.3325,"pop":28852},{"zip":"75022","city":"Zcta 75022","state":"TX","lat":33.0268,"lng":-97.1193,"pop":28773},{"zip":"76240","city":"Lake kiowa","state":"TX","lat":33.6547,"lng":-97.1583,"pop":28546},{"zip":"76018","city":"Arlington","state":"TX","lat":32.6548,"lng":-97.092,"pop":28353},{"zip":"75212","city":"Dallas","state":"TX","lat":32.7829,"lng":-96.8714,"pop":28017},{"zip":"75252","city":"Dallas","state":"TX","lat":32.9968,"lng":-96.7921,"pop":27880},{"zip":"76036","city":"Crowley","state":"TX","lat":32.5814,"lng":-97.3703,"pop":27835},{"zip":"75230","city":"Dallas","state":"TX","lat":32.8999,"lng":-96.7897,"pop":27402},{"zip":"76114","city":"River oaks","state":"TX","lat":32.7796,"lng":-97.3928,"pop":27151},{"zip":"75240","city":"Dallas","state":"TX","lat":32.9374,"lng":-96.7872,"pop":26841},{"zip":"75088","city":"Rowlett","state":"TX","lat":32.9031,"lng":-96.5472,"pop":26823},{"zip":"76012","city":"Arlington","state":"TX","lat":32.754,"lng":-97.1348,"pop":26730},{"zip":"76034","city":"Colleyville","state":"TX","lat":32.8872,"lng":-97.146,"pop":26693},{"zip":"75092","city":"Sherman","state":"TX","lat":33.6372,"lng":-96.6184,"pop":26297},{"zip":"76132","city":"Fort worth","state":"TX","lat":32.6711,"lng":-97.4056,"pop":26265},{"zip":"75048","city":"Sachse","state":"TX","lat":32.9643,"lng":-96.6012,"pop":26062},{"zip":"75090","city":"Sherman","state":"TX","lat":33.6435,"lng":-96.6075,"pop":25732},{"zip":"75181","city":"Mesquite","state":"TX","lat":32.7272,"lng":-96.5669,"pop":25264},{"zip":"76208","city":"Denton","state":"TX","lat":33.2117,"lng":-97.0612,"pop":24992},{"zip":"75205","city":"Village","state":"TX","lat":32.826,"lng":-96.7843,"pop":24726},{"zip":"75253","city":"Dallas","state":"TX","lat":32.6833,"lng":-96.5964,"pop":24666},{"zip":"76048","city":"Granbury","state":"TX","lat":32.425,"lng":-97.7742,"pop":24586},{"zip":"75160","city":"Terrell","state":"TX","lat":32.7515,"lng":-96.2831,"pop":24494},{"zip":"76006","city":"Arlington","state":"TX","lat":32.7785,"lng":-97.0834,"pop":24057},{"zip":"75219","city":"Dallas","state":"TX","lat":32.8132,"lng":-96.8142,"pop":24038},{"zip":"75180","city":"Balch springs","state":"TX","lat":32.7287,"lng":-96.6228,"pop":23939},{"zip":"76126","city":"Benbrook","state":"TX","lat":32.64,"lng":-97.5448,"pop":23844},{"zip":"76109","city":"Fort worth","state":"TX","lat":32.7002,"lng":-97.3789,"pop":23725},{"zip":"76148","city":"Watauga","state":"TX","lat":32.8621,"lng":-97.2508,"pop":23679},{"zip":"75082","city":"Richardson","state":"TX","lat":32.9865,"lng":-96.686,"pop":23418},{"zip":"75094","city":"Murphy","state":"TX","lat":33.0148,"lng":-96.6189,"pop":23408},{"zip":"75020","city":"Denison","state":"TX","lat":33.745,"lng":-96.5496,"pop":23216},{"zip":"76086","city":"Weatherford","state":"TX","lat":32.7549,"lng":-97.7899,"pop":23161},{"zip":"76052","city":"Haslet","state":"TX","lat":32.9557,"lng":-97.3372,"pop":23080},{"zip":"76105","city":"Fort worth","state":"TX","lat":32.7233,"lng":-97.269,"pop":22922},{"zip":"76011","city":"Arlington","state":"TX","lat":32.7582,"lng":-97.1003,"pop":22878},{"zip":"75218","city":"Dallas","state":"TX","lat":32.8463,"lng":-96.6972,"pop":22712},{"zip":"76111","city":"Fort worth","state":"TX","lat":32.7824,"lng":-97.3003,"pop":22567},{"zip":"75225","city":"Dallas","state":"TX","lat":32.8628,"lng":-96.7918,"pop":22108},{"zip":"76115","city":"Fort worth","state":"TX","lat":32.6796,"lng":-97.3336,"pop":21907},{"zip":"75142","city":"Kaufman","state":"TX","lat":32.546,"lng":-96.2852,"pop":21746},{"zip":"76205","city":"Denton","state":"TX","lat":33.1903,"lng":-97.1282,"pop":21657},{"zip":"75237","city":"Dallas","state":"TX","lat":32.659,"lng":-96.8765,"pop":21607},{"zip":"76082","city":"Springtown","state":"TX","lat":32.966,"lng":-97.6836,"pop":21151},{"zip":"76058","city":"Joshua","state":"TX","lat":32.4663,"lng":-97.4011,"pop":21037},{"zip":"75159","city":"Seagoville","state":"TX","lat":32.6525,"lng":-96.558,"pop":20857},{"zip":"75134","city":"Lancaster","state":"TX","lat":32.6161,"lng":-96.783,"pop":20759},{"zip":"75401","city":"Greenville","state":"TX","lat":33.1854,"lng":-96.1304,"pop":20689},{"zip":"75146","city":"Lancaster","state":"TX","lat":32.5914,"lng":-96.7728,"pop":20663},{"zip":"75039","city":"Irving","state":"TX","lat":32.8697,"lng":-96.9389,"pop":20627},{"zip":"76008","city":"Aledo","state":"TX","lat":32.7004,"lng":-97.6039,"pop":20288},{"zip":"76135","city":"Fort worth","state":"TX","lat":32.8248,"lng":-97.4519,"pop":20233},{"zip":"76120","city":"Fort worth","state":"TX","lat":32.7639,"lng":-97.1781,"pop":19941},{"zip":"75116","city":"Duncanville","state":"TX","lat":32.6587,"lng":-96.9114,"pop":19755},{"zip":"76009","city":"Alvarado","state":"TX","lat":32.4395,"lng":-97.213,"pop":19618},{"zip":"75137","city":"Duncanville","state":"TX","lat":32.6347,"lng":-96.9113,"pop":19341},{"zip":"75235","city":"Dallas","state":"TX","lat":32.8252,"lng":-96.8388,"pop":19198},{"zip":"76234","city":"Decatur","state":"TX","lat":33.2351,"lng":-97.574,"pop":18937},{"zip":"76031","city":"Cleburne","state":"TX","lat":32.3485,"lng":-97.3311,"pop":18432},{"zip":"75249","city":"Dallas","state":"TX","lat":32.636,"lng":-96.9493,"pop":18374},{"zip":"75407","city":"Princeton","state":"TX","lat":33.1555,"lng":-96.4981,"pop":18371},{"zip":"75203","city":"Dallas","state":"TX","lat":32.746,"lng":-96.807,"pop":18295},{"zip":"75201","city":"Dallas","state":"TX","lat":32.7904,"lng":-96.8044,"pop":18032},{"zip":"76015","city":"Arlington","state":"TX","lat":32.6931,"lng":-97.1347,"pop":17773},{"zip":"76104","city":"Fort worth","state":"TX","lat":32.7256,"lng":-97.3184,"pop":17653},{"zip":"75402","city":"Greenville","state":"TX","lat":33.1047,"lng":-96.0927,"pop":17463},{"zip":"75215","city":"Dallas","state":"TX","lat":32.7582,"lng":-96.7623,"pop":17184},{"zip":"75233","city":"Dallas","state":"TX","lat":32.7046,"lng":-96.8725,"pop":16920},{"zip":"75236","city":"Dallas","state":"TX","lat":32.69,"lng":-96.9177,"pop":16920},{"zip":"76103","city":"Fort worth","state":"TX","lat":32.747,"lng":-97.2604,"pop":16848},{"zip":"75409","city":"Anna","state":"TX","lat":33.3445,"lng":-96.5639,"pop":16750},{"zip":"75057","city":"Lewisville","state":"TX","lat":33.0532,"lng":-96.9999,"pop":16670},{"zip":"76118","city":"North richland h","state":"TX","lat":32.8013,"lng":-97.1952,"pop":16594},{"zip":"76266","city":"Sanger","state":"TX","lat":33.3563,"lng":-97.1814,"pop":16571},{"zip":"75474","city":"Quinlan","state":"TX","lat":32.8983,"lng":-96.1261,"pop":15912},{"zip":"75001","city":"Addison","state":"TX","lat":32.96,"lng":-96.8385,"pop":15418},{"zip":"75009","city":"Celina","state":"TX","lat":33.3103,"lng":-96.7673,"pop":15348},{"zip":"75223","city":"Dallas","state":"TX","lat":32.7942,"lng":-96.7475,"pop":15002},{"zip":"76207","city":"Denton","state":"TX","lat":33.2285,"lng":-97.1813,"pop":14794},{"zip":"75418","city":"Bonham","state":"TX","lat":33.5806,"lng":-96.1836,"pop":14570},{"zip":"75209","city":"Dallas","state":"TX","lat":32.8456,"lng":-96.826,"pop":14558},{"zip":"75143","city":"Seven points","state":"TX","lat":32.2486,"lng":-96.2161,"pop":14336},{"zip":"76022","city":"Bedford","state":"TX","lat":32.8297,"lng":-97.1454,"pop":13945},{"zip":"75244","city":"Farmers branch","state":"TX","lat":32.9322,"lng":-96.8353,"pop":13552},{"zip":"75065","city":"Lake dallas","state":"TX","lat":33.1219,"lng":-97.0237,"pop":13026},{"zip":"75169","city":"Wills point","state":"TX","lat":32.7283,"lng":-96.0079,"pop":12937},{"zip":"76426","city":"Bridgeport","state":"TX","lat":33.187,"lng":-97.781,"pop":12694},{"zip":"76088","city":"Zcta 76088","state":"TX","lat":32.8478,"lng":-97.8606,"pop":12610},{"zip":"76247","city":"Justin","state":"TX","lat":33.0734,"lng":-97.3093,"pop":12542},{"zip":"76054","city":"Hurst","state":"TX","lat":32.8558,"lng":-97.1755,"pop":12178},{"zip":"75167","city":"Zcta 75167","state":"TX","lat":32.3773,"lng":-96.9162,"pop":12091},{"zip":"75454","city":"Melissa","state":"TX","lat":33.2841,"lng":-96.574,"pop":11848},{"zip":"76177","city":"Fort worth","state":"TX","lat":32.9448,"lng":-97.3124,"pop":10814},{"zip":"76102","city":"Fort worth","state":"TX","lat":32.7589,"lng":-97.328,"pop":10632},{"zip":"76645","city":"Hillsboro","state":"TX","lat":32.0149,"lng":-97.1198,"pop":10513},{"zip":"76230","city":"Bowie","state":"TX","lat":33.5568,"lng":-97.8373,"pop":9633},{"zip":"76084","city":"Venus","state":"TX","lat":32.433,"lng":-97.1087,"pop":9574},{"zip":"75442","city":"Farmersville","state":"TX","lat":33.1659,"lng":-96.3686,"pop":9558},{"zip":"75210","city":"Dallas","state":"TX","lat":32.7699,"lng":-96.743,"pop":9504},{"zip":"75021","city":"Denison","state":"TX","lat":33.7169,"lng":-96.5235,"pop":9454},{"zip":"76273","city":"Whitesboro","state":"TX","lat":33.659,"lng":-96.879,"pop":9429},{"zip":"76078","city":"Rhome","state":"TX","lat":33.054,"lng":-97.4817,"pop":9024},{"zip":"75495","city":"Van alstyne","state":"TX","lat":33.4292,"lng":-96.5486,"pop":8621},{"zip":"76060","city":"Kennedale","state":"TX","lat":32.6432,"lng":-97.2139,"pop":8606},{"zip":"76249","city":"Krum","state":"TX","lat":33.2734,"lng":-97.2675,"pop":8196},{"zip":"75207","city":"Dallas","state":"TX","lat":32.7939,"lng":-96.8319,"pop":7715},{"zip":"75125","city":"Ferris","state":"TX","lat":32.5223,"lng":-96.6643,"pop":7664},{"zip":"76043","city":"Glen rose","state":"TX","lat":32.2298,"lng":-97.7629,"pop":7525},{"zip":"75161","city":"Zcta 75161","state":"TX","lat":32.7332,"lng":-96.195,"pop":7483},{"zip":"75135","city":"Caddo mills","state":"TX","lat":33.0683,"lng":-96.2391,"pop":7183},{"zip":"76023","city":"Boyd","state":"TX","lat":33.0594,"lng":-97.5868,"pop":7090},{"zip":"75147","city":"Gun barrel city","state":"TX","lat":32.3685,"lng":-96.0685,"pop":6951},{"zip":"76258","city":"Pilot point","state":"TX","lat":33.371,"lng":-96.9446,"pop":6926},{"zip":"75114","city":"Crandall","state":"TX","lat":32.6279,"lng":-96.4558,"pop":6870},{"zip":"75148","city":"Malakoff","state":"TX","lat":32.1705,"lng":-96.006,"pop":6396},{"zip":"76155","city":"Fort worth","state":"TX","lat":32.8247,"lng":-97.0503,"pop":6329},{"zip":"76073","city":"Paradise","state":"TX","lat":33.0826,"lng":-97.6974,"pop":6237},{"zip":"75182","city":"Mesquite","state":"TX","lat":32.797,"lng":-96.5616,"pop":6199},{"zip":"76050","city":"Grandview","state":"TX","lat":32.2704,"lng":-97.1792,"pop":6094},{"zip":"75141","city":"Hutchins","state":"TX","lat":32.6396,"lng":-96.707,"pop":5814},{"zip":"76259","city":"Ponder","state":"TX","lat":33.1774,"lng":-97.2848,"pop":5738},{"zip":"76059","city":"Keene","state":"TX","lat":32.3937,"lng":-97.3287,"pop":5716},{"zip":"76255","city":"Nocona","state":"TX","lat":33.7982,"lng":-97.727,"pop":5477},{"zip":"76044","city":"Godley","state":"TX","lat":32.4282,"lng":-97.5349,"pop":5407},{"zip":"75459","city":"Howe","state":"TX","lat":33.5311,"lng":-96.6777,"pop":5260},{"zip":"75152","city":"Palmer","state":"TX","lat":32.4387,"lng":-96.6794,"pop":5194},{"zip":"75124","city":"Eustace","state":"TX","lat":32.2965,"lng":-96.0137,"pop":4985},{"zip":"75173","city":"Nevada","state":"TX","lat":33.0593,"lng":-96.3877,"pop":4953},{"zip":"75172","city":"Wilmer","state":"TX","lat":32.5981,"lng":-96.6838,"pop":4814},{"zip":"75491","city":"Whitewright","state":"TX","lat":33.519,"lng":-96.451,"pop":4781},{"zip":"75226","city":"Dallas","state":"TX","lat":32.7887,"lng":-96.7676,"pop":4774},{"zip":"75452","city":"Leonard","state":"TX","lat":33.3796,"lng":-96.2475,"pop":4673},{"zip":"75166","city":"Lavon","state":"TX","lat":33.0139,"lng":-96.4377,"pop":4624},{"zip":"76462","city":"Lipan","state":"TX","lat":32.5072,"lng":-97.9536,"pop":4412},{"zip":"76272","city":"Valley view","state":"TX","lat":33.5022,"lng":-97.2311,"pop":4404},{"zip":"75158","city":"Scurry","state":"TX","lat":32.4818,"lng":-96.3925,"pop":4337},{"zip":"76071","city":"Newark","state":"TX","lat":33.007,"lng":-97.4923,"pop":4173},{"zip":"76066","city":"Millsap","state":"TX","lat":32.7457,"lng":-97.9561,"pop":4106},{"zip":"76651","city":"Italy","state":"TX","lat":32.1785,"lng":-96.8823,"pop":4084},{"zip":"75251","city":"Dallas","state":"TX","lat":32.9189,"lng":-96.7751,"pop":3750},{"zip":"76431","city":"Chico","state":"TX","lat":33.3193,"lng":-97.8031,"pop":3708},{"zip":"75496","city":"Wolfe city","state":"TX","lat":33.3605,"lng":-96.0691,"pop":3450},{"zip":"75423","city":"Celeste","state":"TX","lat":33.2649,"lng":-96.2076,"pop":3423},{"zip":"75144","city":"Kerens","state":"TX","lat":32.1275,"lng":-96.2298,"pop":3414},{"zip":"75414","city":"Bells","state":"TX","lat":33.6178,"lng":-96.4237,"pop":3394},{"zip":"75058","city":"Gunter","state":"TX","lat":33.4495,"lng":-96.7341,"pop":3329},{"zip":"76233","city":"Collinsville","state":"TX","lat":33.558,"lng":-96.9014,"pop":3317},{"zip":"76055","city":"Itasca","state":"TX","lat":32.1636,"lng":-97.146,"pop":3181},{"zip":"76476","city":"Tolar","state":"TX","lat":32.3772,"lng":-97.8802,"pop":3151},{"zip":"75155","city":"Rice","state":"TX","lat":32.2258,"lng":-96.4606,"pop":2971},{"zip":"76093","city":"Rio vista","state":"TX","lat":32.2532,"lng":-97.3678,"pop":2930},{"zip":"75424","city":"Blue ridge","state":"TX","lat":33.3061,"lng":-96.3901,"pop":2891},{"zip":"75202","city":"Dallas","state":"TX","lat":32.7781,"lng":-96.8054,"pop":2739},{"zip":"76225","city":"Alvord","state":"TX","lat":33.3698,"lng":-97.6885,"pop":2688},{"zip":"75490","city":"Trenton","state":"TX","lat":33.4235,"lng":-96.3398,"pop":2633},{"zip":"75163","city":"Trinidad","state":"TX","lat":32.1383,"lng":-96.0831,"pop":2590},{"zip":"75246","city":"Dallas","state":"TX","lat":32.7948,"lng":-96.7697,"pop":2553},{"zip":"76252","city":"Muenster","state":"TX","lat":33.6595,"lng":-97.3624,"pop":2441},{"zip":"76035","city":"Cresson","state":"TX","lat":32.5343,"lng":-97.6158,"pop":2373},{"zip":"75132","city":"Fate","state":"TX","lat":32.9415,"lng":-96.3814,"pop":2326},{"zip":"76487","city":"Poolville","state":"TX","lat":32.968,"lng":-97.8472,"pop":2230},{"zip":"76064","city":"Maypearl","state":"TX","lat":32.2993,"lng":-97.0271,"pop":2100},{"zip":"76127","city":"Carswell afb","state":"TX","lat":32.7254,"lng":-97.3208,"pop":2038},{"zip":"75479","city":"Savoy","state":"TX","lat":33.6066,"lng":-96.3502,"pop":1987},{"zip":"76271","city":"Tioga","state":"TX","lat":33.4675,"lng":-96.9097,"pop":1984},{"zip":"76270","city":"Sunset","state":"TX","lat":33.4539,"lng":-97.7709,"pop":1932},{"zip":"76671","city":"Morgan","state":"TX","lat":32.0195,"lng":-97.5608,"pop":1748},{"zip":"76641","city":"Frost","state":"TX","lat":32.0275,"lng":-96.7684,"pop":1687},{"zip":"76670","city":"Milford","state":"TX","lat":32.1482,"lng":-96.9612,"pop":1617},{"zip":"76636","city":"Covington","state":"TX","lat":32.1595,"lng":-97.2591,"pop":1509},{"zip":"76265","city":"Saint jo","state":"TX","lat":33.744,"lng":-97.5568,"pop":1464},{"zip":"75102","city":"Barry","state":"TX","lat":32.1014,"lng":-96.6251,"pop":1455},{"zip":"76264","city":"Sadler","state":"TX","lat":33.731,"lng":-96.84,"pop":1368},{"zip":"76627","city":"Blum","state":"TX","lat":32.1052,"lng":-97.3652,"pop":1334},{"zip":"76239","city":"Forestburg","state":"TX","lat":33.5398,"lng":-97.5848,"pop":1310},{"zip":"76626","city":"Blooming grove","state":"TX","lat":32.0758,"lng":-96.701,"pop":1294},{"zip":"75447","city":"Ivanhoe","state":"TX","lat":33.7612,"lng":-96.1193,"pop":1201},{"zip":"75439","city":"Ector","state":"TX","lat":33.5819,"lng":-96.2735,"pop":1186},{"zip":"75489","city":"Tom bean","state":"TX","lat":33.5193,"lng":-96.4843,"pop":1110},{"zip":"76652","city":"Kopperl","state":"TX","lat":32.1035,"lng":-97.5421,"pop":1089},{"zip":"76690","city":"Walnut springs","state":"TX","lat":32.0593,"lng":-97.7514,"pop":1081},{"zip":"75476","city":"Ravenna","state":"TX","lat":33.7098,"lng":-96.1452,"pop":1031},{"zip":"75438","city":"Dodd city","state":"TX","lat":33.5647,"lng":-96.0619,"pop":973},{"zip":"76070","city":"Nemo","state":"TX","lat":32.2713,"lng":-97.6567,"pop":955},{"zip":"76250","city":"Lindsay","state":"TX","lat":33.636,"lng":-97.2214,"pop":894},{"zip":"75164","city":"Josephine","state":"TX","lat":33.0612,"lng":-96.3072,"pop":788},{"zip":"75247","city":"Dallas","state":"TX","lat":32.8152,"lng":-96.8703,"pop":772},{"zip":"76251","city":"Montague","state":"TX","lat":33.6639,"lng":-97.7282,"pop":763},{"zip":"75488","city":"Telephone","state":"TX","lat":33.7979,"lng":-96.0449,"pop":747},{"zip":"75101","city":"Bardwell","state":"TX","lat":32.2731,"lng":-96.703,"pop":643},{"zip":"75153","city":"Powell","state":"TX","lat":32.1196,"lng":-96.3327,"pop":571},{"zip":"76041","city":"Forreston","state":"TX","lat":32.2486,"lng":-96.8232,"pop":514},{"zip":"76253","city":"Myra","state":"TX","lat":33.6178,"lng":-97.309,"pop":383},{"zip":"75492","city":"Windom","state":"TX","lat":33.5633,"lng":-96.002,"pop":369},{"zip":"76077","city":"Rainbow","state":"TX","lat":32.2812,"lng":-97.7065,"pop":333},{"zip":"75413","city":"Bailey","state":"TX","lat":33.43,"lng":-96.1662,"pop":287},{"zip":"76238","city":"Era","state":"TX","lat":33.4965,"lng":-97.3859,"pop":276},{"zip":"76666","city":"Mertens","state":"TX","lat":32.0275,"lng":-96.8981,"pop":254},{"zip":"75105","city":"Chatfield","state":"TX","lat":32.2954,"lng":-96.3887,"pop":248},{"zip":"76268","city":"Southmayd","state":"TX","lat":33.6304,"lng":-96.7692,"pop":224},{"zip":"75475","city":"Randolph","state":"TX","lat":33.4846,"lng":-96.2541,"pop":111},{"zip":"76628","city":"Brandon","state":"TX","lat":32.0457,"lng":-96.9606,"pop":101},{"zip":"76061","city":"Lillian","state":"TX","lat":32.5065,"lng":-97.1875,"pop":59}]